{
"type": "FeatureCollection",
"crs": { "type": "name", "properties": { "name": "urn:ogc:def:crs:OGC:1.3:CRS84" } },
"features": [
{ "type": "Feature", "properties": { "id": null, "name": "Bahrain", "continent": "Asia", "subregion": "Western Asia" }, "geometry": { "type": "Point", "coordinates": [ 50.54, 26.04 ] } },
{ "type": "Feature", "properties": { "id": null, "name": "Guernsey", "continent": "Europe", "subregion": "Northern Europe" }, "geometry": { "type": "Point", "coordinates": [ -2.57, 49.47 ] } },
{ "type": "Feature", "properties": { "id": null, "name": "Macao", "continent": "Asia", "subregion": "Eastern Asia" }, "geometry": { "type": "Point", "coordinates": [ 113.51, 22.22 ] } },
{ "type": "Feature", "properties": { "id": null, "name": "Sierra Leone", "continent": "Africa", "subregion": "Western Africa" }, "geometry": { "type": "Point", "coordinates": [ -11.79, 8.56 ] } },
{ "type": "Feature", "properties": { "id": null, "name": "Albania", "continent": "Europe", "subregion": "Southern Europe" }, "geometry": { "type": "Point", "coordinates": [ 20.05, 41.13 ] } },
{ "type": "Feature", "properties": { "id": null, "name": "Iran", "continent": "Asia", "subregion": "Southern Asia" }, "geometry": { "type": "Point", "coordinates": [ 54.27, 32.57 ] } },
{ "type": "Feature", "properties": { "id": null, "name": "Vatican", "continent": "Europe", "subregion": "Southern Europe" }, "geometry": { "type": "Point", "coordinates": [ 12.43, 41.90 ] } },
{ "type": "Feature", "properties": { "id": null, "name": "Singapore", "continent": "Asia", "subregion": "South-Eastern Asia" }, "geometry": { "type": "Point", "coordinates": [ 103.82, 1.36 ] } },
{ "type": "Feature", "properties": { "id": null, "name": "Ghana", "continent": "Africa", "subregion": "Western Africa" }, "geometry": { "type": "Point", "coordinates": [ -1.21, 7.95 ] } },
{ "type": "Feature", "properties": { "id": null, "name": "St. Pierre and Miquelon", "continent": "North America", "subregion": "Northern America" }, "geometry": { "type": "Point", "coordinates": [ -56.30, 46.92 ] } },
{ "type": "Feature", "properties": { "id": null, "name": "Mongolia", "continent": "Asia", "subregion": "Eastern Asia" }, "geometry": { "type": "Point", "coordinates": [ 103.05, 46.82 ] } },
{ "type": "Feature", "properties": { "id": null, "name": "Kosovo", "continent": "Europe", "subregion": "Southern Europe" }, "geometry": { "type": "Point", "coordinates": [ 20.87, 42.57 ] } },
{ "type": "Feature", "properties": { "id": null, "name": "Antarctica", "continent": "Antarctica", "subregion": "Antarctica" }, "geometry": { "type": "Point", "coordinates": [ 19.91, -80.50 ] } },
{ "type": "Feature", "properties": { "id": null, "name": "Palestine", "continent": "Asia", "subregion": "Western Asia" }, "geometry": { "type": "Point", "coordinates": [ 35.19, 31.91 ] } },
{ "type": "Feature", "properties": { "id": null, "name": "New Caledonia", "continent": "Oceania", "subregion": "Melanesia" }, "geometry": { "type": "Point", "coordinates": [ 165.68, -21.29 ] } },
{ "type": "Feature", "properties": { "id": null, "name": "Syria", "continent": "Asia", "subregion": "Western Asia" }, "geometry": { "type": "Point", "coordinates": [ 38.50, 35.02 ] } },
{ "type": "Feature", "properties": { "id": null, "name": "Guinea-Bissau", "continent": "Africa", "subregion": "Western Africa" }, "geometry": { "type": "Point", "coordinates": [ -14.94, 12.04 ] } },
{ "type": "Feature", "properties": { "id": null, "name": "Nauru", "continent": "Oceania", "subregion": "Micronesia" }, "geometry": { "type": "Point", "coordinates": [ 166.93, -0.51 ] } },
{ "type": "Feature", "properties": { "id": null, "name": "U.S. Virgin Is.", "continent": "North America", "subregion": "Caribbean" }, "geometry": { "type": "Point", "coordinates": [ -64.80, 17.96 ] } },
{ "type": "Feature", "properties": { "id": null, "name": "Yemen", "continent": "Asia", "subregion": "Western Asia" }, "geometry": { "type": "Point", "coordinates": [ 47.58, 15.91 ] } },
{ "type": "Feature", "properties": { "id": null, "name": "Uganda", "continent": "Africa", "subregion": "Eastern Africa" }, "geometry": { "type": "Point", "coordinates": [ 32.31, 1.50 ] } },
{ "type": "Feature", "properties": { "id": null, "name": "Afghanistan", "continent": "Asia", "subregion": "Southern Asia" }, "geometry": { "type": "Point", "coordinates": [ 66.00, 33.83 ] } },
{ "type": "Feature", "properties": { "id": null, "name": "Turks and Caicos Is.", "continent": "North America", "subregion": "Caribbean" }, "geometry": { "type": "Point", "coordinates": [ -71.97, 21.83 ] } },
{ "type": "Feature", "properties": { "id": null, "name": "Russia", "continent": "Europe", "subregion": "Eastern Europe" }, "geometry": { "type": "Point", "coordinates": [ 69.58, 61.33 ] } },
{ "type": "Feature", "properties": { "id": null, "name": "Fiji", "continent": "Oceania", "subregion": "Melanesia" }, "geometry": { "type": "Point", "coordinates": [ 165.67, -17.42 ] } },
{ "type": "Feature", "properties": { "id": null, "name": "Malta", "continent": "Europe", "subregion": "Southern Europe" }, "geometry": { "type": "Point", "coordinates": [ 14.40, 35.92 ] } },
{ "type": "Feature", "properties": { "id": null, "name": "Trinidad and Tobago", "continent": "North America", "subregion": "Caribbean" }, "geometry": { "type": "Point", "coordinates": [ -61.26, 10.45 ] } },
{ "type": "Feature", "properties": { "id": null, "name": "India", "continent": "Asia", "subregion": "Southern Asia" }, "geometry": { "type": "Point", "coordinates": [ 79.61, 22.88 ] } },
{ "type": "Feature", "properties": { "id": null, "name": "St. Kitts and Nevis", "continent": "North America", "subregion": "Caribbean" }, "geometry": { "type": "Point", "coordinates": [ -62.68, 17.26 ] } },
{ "type": "Feature", "properties": { "id": null, "name": "Jordan", "continent": "Asia", "subregion": "Western Asia" }, "geometry": { "type": "Point", "coordinates": [ 36.77, 31.24 ] } },
{ "type": "Feature", "properties": { "id": null, "name": "Senegal", "continent": "Africa", "subregion": "Western Africa" }, "geometry": { "type": "Point", "coordinates": [ -14.47, 14.36 ] } },
{ "type": "Feature", "properties": { "id": null, "name": "Mauritania", "continent": "Africa", "subregion": "Western Africa" }, "geometry": { "type": "Point", "coordinates": [ -10.34, 20.25 ] } },
{ "type": "Feature", "properties": { "id": null, "name": "Suriname", "continent": "South America", "subregion": "South America" }, "geometry": { "type": "Point", "coordinates": [ -55.91, 4.13 ] } },
{ "type": "Feature", "properties": { "id": null, "name": "British Virgin Is.", "continent": "North America", "subregion": "Caribbean" }, "geometry": { "type": "Point", "coordinates": [ -64.47, 18.52 ] } },
{ "type": "Feature", "properties": { "id": null, "name": "Cook Is.", "continent": "Oceania", "subregion": "Polynesia" }, "geometry": { "type": "Point", "coordinates": [ -159.78, -21.21 ] } },
{ "type": "Feature", "properties": { "id": null, "name": "Japan", "continent": "Asia", "subregion": "Eastern Asia" }, "geometry": { "type": "Point", "coordinates": [ 138.03, 37.59 ] } },
{ "type": "Feature", "properties": { "id": null, "name": "Korea", "continent": "Asia", "subregion": "Eastern Asia" }, "geometry": { "type": "Point", "coordinates": [ 127.83, 36.38 ] } },
{ "type": "Feature", "properties": { "id": null, "name": "Czech Rep.", "continent": "Europe", "subregion": "Eastern Europe" }, "geometry": { "type": "Point", "coordinates": [ 15.31, 49.73 ] } },
{ "type": "Feature", "properties": { "id": null, "name": "Samoa", "continent": "Oceania", "subregion": "Polynesia" }, "geometry": { "type": "Point", "coordinates": [ -172.16, -13.75 ] } },
{ "type": "Feature", "properties": { "id": null, "name": "Saint Lucia", "continent": "North America", "subregion": "Caribbean" }, "geometry": { "type": "Point", "coordinates": [ -60.97, 13.89 ] } },
{ "type": "Feature", "properties": { "id": null, "name": "Portugal", "continent": "Europe", "subregion": "Southern Europe" }, "geometry": { "type": "Point", "coordinates": [ -8.50, 39.59 ] } },
{ "type": "Feature", "properties": { "id": null, "name": "Guatemala", "continent": "North America", "subregion": "Central America" }, "geometry": { "type": "Point", "coordinates": [ -90.36, 15.69 ] } },
{ "type": "Feature", "properties": { "id": null, "name": "Switzerland", "continent": "Europe", "subregion": "Western Europe" }, "geometry": { "type": "Point", "coordinates": [ 8.20, 46.79 ] } },
{ "type": "Feature", "properties": { "id": null, "name": "Congo", "continent": "Africa", "subregion": "Middle Africa" }, "geometry": { "type": "Point", "coordinates": [ 15.21, -0.83 ] } },
{ "type": "Feature", "properties": { "id": null, "name": "Micronesia", "continent": "Oceania", "subregion": "Micronesia" }, "geometry": { "type": "Point", "coordinates": [ 153.63, 7.39 ] } },
{ "type": "Feature", "properties": { "id": null, "name": "China", "continent": "Asia", "subregion": "Eastern Asia" }, "geometry": { "type": "Point", "coordinates": [ 103.81, 36.56 ] } },
{ "type": "Feature", "properties": { "id": null, "name": "Moldova", "continent": "Europe", "subregion": "Eastern Europe" }, "geometry": { "type": "Point", "coordinates": [ 28.45, 47.19 ] } },
{ "type": "Feature", "properties": { "id": null, "name": "Canada", "continent": "North America", "subregion": "Northern America" }, "geometry": { "type": "Point", "coordinates": [ -104.88, 58.33 ] } },
{ "type": "Feature", "properties": { "id": null, "name": "Tanzania", "continent": "Africa", "subregion": "Eastern Africa" }, "geometry": { "type": "Point", "coordinates": [ 34.97, -6.44 ] } },
{ "type": "Feature", "properties": { "id": null, "name": "Chile", "continent": "South America", "subregion": "South America" }, "geometry": { "type": "Point", "coordinates": [ -71.38, -37.72 ] } },
{ "type": "Feature", "properties": { "id": null, "name": "Eritrea", "continent": "Africa", "subregion": "Eastern Africa" }, "geometry": { "type": "Point", "coordinates": [ 38.84, 15.36 ] } },
{ "type": "Feature", "properties": { "id": null, "name": "Poland", "continent": "Europe", "subregion": "Eastern Europe" }, "geometry": { "type": "Point", "coordinates": [ 19.39, 52.12 ] } },
{ "type": "Feature", "properties": { "id": null, "name": "Central African Rep.", "continent": "Africa", "subregion": "Middle Africa" }, "geometry": { "type": "Point", "coordinates": [ 20.46, 6.56 ] } },
{ "type": "Feature", "properties": { "id": null, "name": "Maldives", "continent": "Seven seas (open ocean)", "subregion": "Southern Asia" }, "geometry": { "type": "Point", "coordinates": [ 73.45, 3.73 ] } },
{ "type": "Feature", "properties": { "id": null, "name": "Uzbekistan", "continent": "Asia", "subregion": "Central Asia" }, "geometry": { "type": "Point", "coordinates": [ 63.22, 41.69 ] } },
{ "type": "Feature", "properties": { "id": null, "name": "Bhutan", "continent": "Asia", "subregion": "Southern Asia" }, "geometry": { "type": "Point", "coordinates": [ 90.40, 27.41 ] } },
{ "type": "Feature", "properties": { "id": null, "name": "Ethiopia", "continent": "Africa", "subregion": "Eastern Africa" }, "geometry": { "type": "Point", "coordinates": [ 39.60, 8.62 ] } },
{ "type": "Feature", "properties": { "id": null, "name": "Montenegro", "continent": "Europe", "subregion": "Southern Europe" }, "geometry": { "type": "Point", "coordinates": [ 19.23, 42.79 ] } },
{ "type": "Feature", "properties": { "id": null, "name": "Azerbaijan", "continent": "Asia", "subregion": "Western Asia" }, "geometry": { "type": "Point", "coordinates": [ 47.54, 40.28 ] } },
{ "type": "Feature", "properties": { "id": null, "name": "Bermuda", "continent": "North America", "subregion": "Northern America" }, "geometry": { "type": "Point", "coordinates": [ -64.75, 32.31 ] } },
{ "type": "Feature", "properties": { "id": null, "name": "Gabon", "continent": "Africa", "subregion": "Middle Africa" }, "geometry": { "type": "Point", "coordinates": [ 11.78, -0.58 ] } },
{ "type": "Feature", "properties": { "id": null, "name": "Saudi Arabia", "continent": "Asia", "subregion": "Western Asia" }, "geometry": { "type": "Point", "coordinates": [ 44.53, 24.12 ] } },
{ "type": "Feature", "properties": { "id": null, "name": "Pitcairn Is.", "continent": "Oceania", "subregion": "Polynesia" }, "geometry": { "type": "Point", "coordinates": [ -128.31, -24.36 ] } },
{ "type": "Feature", "properties": { "id": null, "name": "Slovenia", "continent": "Europe", "subregion": "Southern Europe" }, "geometry": { "type": "Point", "coordinates": [ 14.80, 46.11 ] } },
{ "type": "Feature", "properties": { "id": null, "name": "Netherlands", "continent": "Europe", "subregion": "Western Europe" }, "geometry": { "type": "Point", "coordinates": [ 5.28, 52.07 ] } },
{ "type": "Feature", "properties": { "id": null, "name": "Falkland Is.", "continent": "South America", "subregion": "South America" }, "geometry": { "type": "Point", "coordinates": [ -59.35, -51.74 ] } },
{ "type": "Feature", "properties": { "id": null, "name": "Lao PDR", "continent": "Asia", "subregion": "South-Eastern Asia" }, "geometry": { "type": "Point", "coordinates": [ 103.73, 18.50 ] } },
{ "type": "Feature", "properties": { "id": null, "name": "Uruguay", "continent": "South America", "subregion": "South America" }, "geometry": { "type": "Point", "coordinates": [ -56.02, -32.79 ] } },
{ "type": "Feature", "properties": { "id": null, "name": "Br. Indian Ocean Ter.", "continent": "Seven seas (open ocean)", "subregion": "Seven seas (open ocean)" }, "geometry": { "type": "Point", "coordinates": [ 72.44, -7.33 ] } },
{ "type": "Feature", "properties": { "id": null, "name": "Algeria", "continent": "Africa", "subregion": "Northern Africa" }, "geometry": { "type": "Point", "coordinates": [ 2.61, 28.15 ] } },
{ "type": "Feature", "properties": { "id": null, "name": "Fr. S. Antarctic Lands", "continent": "Seven seas (open ocean)", "subregion": "Seven seas (open ocean)" }, "geometry": { "type": "Point", "coordinates": [ 69.23, -49.24 ] } },
{ "type": "Feature", "properties": { "id": null, "name": "South Africa", "continent": "Africa", "subregion": "Southern Africa" }, "geometry": { "type": "Point", "coordinates": [ 25.08, -28.99 ] } },
{ "type": "Feature", "properties": { "id": null, "name": "Djibouti", "continent": "Africa", "subregion": "Eastern Africa" }, "geometry": { "type": "Point", "coordinates": [ 42.56, 11.74 ] } },
{ "type": "Feature", "properties": { "id": null, "name": "Costa Rica", "continent": "North America", "subregion": "Central America" }, "geometry": { "type": "Point", "coordinates": [ -84.19, 9.97 ] } },
{ "type": "Feature", "properties": { "id": null, "name": "Grenada", "continent": "North America", "subregion": "Caribbean" }, "geometry": { "type": "Point", "coordinates": [ -61.68, 12.11 ] } },
{ "type": "Feature", "properties": { "id": null, "name": "Argentina", "continent": "South America", "subregion": "South America" }, "geometry": { "type": "Point", "coordinates": [ -65.17, -35.38 ] } },
{ "type": "Feature", "properties": { "id": null, "name": "Heard I. and McDonald Is.", "continent": "Seven seas (open ocean)", "subregion": "Seven seas (open ocean)" }, "geometry": { "type": "Point", "coordinates": [ 73.52, -53.08 ] } },
{ "type": "Feature", "properties": { "id": null, "name": "Norway", "continent": "Europe", "subregion": "Northern Europe" }, "geometry": { "type": "Point", "coordinates": [ 9.20, 61.12 ] } },
{ "type": "Feature", "properties": { "id": null, "name": "Puerto Rico", "continent": "North America", "subregion": "Caribbean" }, "geometry": { "type": "Point", "coordinates": [ -66.47, 18.22 ] } },
{ "type": "Feature", "properties": { "id": null, "name": "Kyrgyzstan", "continent": "Asia", "subregion": "Central Asia" }, "geometry": { "type": "Point", "coordinates": [ 74.53, 41.46 ] } },
{ "type": "Feature", "properties": { "id": null, "name": "Hong Kong", "continent": "Asia", "subregion": "Eastern Asia" }, "geometry": { "type": "Point", "coordinates": [ 114.11, 22.39 ] } },
{ "type": "Feature", "properties": { "id": null, "name": "Ecuador", "continent": "South America", "subregion": "South America" }, "geometry": { "type": "Point", "coordinates": [ -78.75, -1.42 ] } },
{ "type": "Feature", "properties": { "id": null, "name": "Iceland", "continent": "Europe", "subregion": "Northern Europe" }, "geometry": { "type": "Point", "coordinates": [ -18.57, 64.99 ] } },
{ "type": "Feature", "properties": { "id": null, "name": "Marshall Is.", "continent": "Oceania", "subregion": "Micronesia" }, "geometry": { "type": "Point", "coordinates": [ 170.29, 7.02 ] } },
{ "type": "Feature", "properties": { "id": null, "name": "Bulgaria", "continent": "Europe", "subregion": "Eastern Europe" }, "geometry": { "type": "Point", "coordinates": [ 25.21, 42.76 ] } },
{ "type": "Feature", "properties": { "id": null, "name": "Wallis and Futuna Is.", "continent": "Oceania", "subregion": "Polynesia" }, "geometry": { "type": "Point", "coordinates": [ -177.33, -13.87 ] } },
{ "type": "Feature", "properties": { "id": null, "name": "Tunisia", "continent": "Africa", "subregion": "Northern Africa" }, "geometry": { "type": "Point", "coordinates": [ 9.55, 34.12 ] } },
{ "type": "Feature", "properties": { "id": null, "name": "Libya", "continent": "Africa", "subregion": "Northern Africa" }, "geometry": { "type": "Point", "coordinates": [ 18.00, 27.03 ] } },
{ "type": "Feature", "properties": { "id": null, "name": "Morocco", "continent": "Africa", "subregion": "Northern Africa" }, "geometry": { "type": "Point", "coordinates": [ -8.45, 29.83 ] } },
{ "type": "Feature", "properties": { "id": null, "name": "Serbia", "continent": "Europe", "subregion": "Southern Europe" }, "geometry": { "type": "Point", "coordinates": [ 20.78, 44.22 ] } },
{ "type": "Feature", "properties": { "id": null, "name": "Faeroe Is.", "continent": "Europe", "subregion": "Northern Europe" }, "geometry": { "type": "Point", "coordinates": [ -6.88, 62.05 ] } },
{ "type": "Feature", "properties": { "id": null, "name": "Belgium", "continent": "Europe", "subregion": "Western Europe" }, "geometry": { "type": "Point", "coordinates": [ 4.64, 50.63 ] } },
{ "type": "Feature", "properties": { "id": null, "name": "Latvia", "continent": "Europe", "subregion": "Northern Europe" }, "geometry": { "type": "Point", "coordinates": [ 24.91, 56.85 ] } },
{ "type": "Feature", "properties": { "id": null, "name": "Comoros", "continent": "Africa", "subregion": "Eastern Africa" }, "geometry": { "type": "Point", "coordinates": [ 43.69, -11.88 ] } },
{ "type": "Feature", "properties": { "id": null, "name": "Hungary", "continent": "Europe", "subregion": "Eastern Europe" }, "geometry": { "type": "Point", "coordinates": [ 19.39, 47.16 ] } },
{ "type": "Feature", "properties": { "id": null, "name": "Slovakia", "continent": "Europe", "subregion": "Eastern Europe" }, "geometry": { "type": "Point", "coordinates": [ 19.47, 48.70 ] } },
{ "type": "Feature", "properties": { "id": null, "name": "Nicaragua", "continent": "North America", "subregion": "Central America" }, "geometry": { "type": "Point", "coordinates": [ -85.03, 12.84 ] } },
{ "type": "Feature", "properties": { "id": null, "name": "Niue", "continent": "Oceania", "subregion": "Polynesia" }, "geometry": { "type": "Point", "coordinates": [ -169.86, -19.04 ] } },
{ "type": "Feature", "properties": { "id": null, "name": "Ireland", "continent": "Europe", "subregion": "Northern Europe" }, "geometry": { "type": "Point", "coordinates": [ -8.13, 53.17 ] } },
{ "type": "Feature", "properties": { "id": null, "name": "Mali", "continent": "Africa", "subregion": "Western Africa" }, "geometry": { "type": "Point", "coordinates": [ -3.54, 17.34 ] } },
{ "type": "Feature", "properties": { "id": null, "name": "Australia", "continent": "Oceania", "subregion": "Australia and New Zealand" }, "geometry": { "type": "Point", "coordinates": [ 134.49, -25.73 ] } },
{ "type": "Feature", "properties": { "id": null, "name": "Botswana", "continent": "Africa", "subregion": "Southern Africa" }, "geometry": { "type": "Point", "coordinates": [ 23.79, -22.18 ] } },
{ "type": "Feature", "properties": { "id": null, "name": "Sudan", "continent": "Africa", "subregion": "Northern Africa" }, "geometry": { "type": "Point", "coordinates": [ 29.94, 15.99 ] } },
{ "type": "Feature", "properties": { "id": null, "name": "Gambia", "continent": "Africa", "subregion": "Western Africa" }, "geometry": { "type": "Point", "coordinates": [ -15.39, 13.45 ] } },
{ "type": "Feature", "properties": { "id": null, "name": "Honduras", "continent": "North America", "subregion": "Central America" }, "geometry": { "type": "Point", "coordinates": [ -86.61, 14.82 ] } },
{ "type": "Feature", "properties": { "id": null, "name": "Ukraine", "continent": "Europe", "subregion": "Eastern Europe" }, "geometry": { "type": "Point", "coordinates": [ 31.38, 48.99 ] } },
{ "type": "Feature", "properties": { "id": null, "name": "Montserrat", "continent": "North America", "subregion": "Caribbean" }, "geometry": { "type": "Point", "coordinates": [ -62.18, 16.73 ] } },
{ "type": "Feature", "properties": { "id": null, "name": "Denmark", "continent": "Europe", "subregion": "Northern Europe" }, "geometry": { "type": "Point", "coordinates": [ 10.02, 55.98 ] } },
{ "type": "Feature", "properties": { "id": null, "name": "Malaysia", "continent": "Asia", "subregion": "South-Eastern Asia" }, "geometry": { "type": "Point", "coordinates": [ 109.69, 3.79 ] } },
{ "type": "Feature", "properties": { "id": null, "name": "San Marino", "continent": "Europe", "subregion": "Southern Europe" }, "geometry": { "type": "Point", "coordinates": [ 12.45, 43.93 ] } },
{ "type": "Feature", "properties": { "id": null, "name": "Angola", "continent": "Africa", "subregion": "Middle Africa" }, "geometry": { "type": "Point", "coordinates": [ 17.53, -12.29 ] } },
{ "type": "Feature", "properties": { "id": null, "name": "Luxembourg", "continent": "Europe", "subregion": "Western Europe" }, "geometry": { "type": "Point", "coordinates": [ 6.07, 49.76 ] } },
{ "type": "Feature", "properties": { "id": null, "name": "Paraguay", "continent": "South America", "subregion": "South America" }, "geometry": { "type": "Point", "coordinates": [ -58.40, -23.22 ] } },
{ "type": "Feature", "properties": { "id": null, "name": "Bolivia", "continent": "South America", "subregion": "South America" }, "geometry": { "type": "Point", "coordinates": [ -64.67, -16.71 ] } },
{ "type": "Feature", "properties": { "id": null, "name": "Armenia", "continent": "Asia", "subregion": "Western Asia" }, "geometry": { "type": "Point", "coordinates": [ 44.93, 40.28 ] } },
{ "type": "Feature", "properties": { "id": null, "name": "Rwanda", "continent": "Africa", "subregion": "Eastern Africa" }, "geometry": { "type": "Point", "coordinates": [ 29.95, -1.98 ] } },
{ "type": "Feature", "properties": { "id": null, "name": "Malawi", "continent": "Africa", "subregion": "Eastern Africa" }, "geometry": { "type": "Point", "coordinates": [ 34.25, -13.52 ] } },
{ "type": "Feature", "properties": { "id": null, "name": "El Salvador", "continent": "North America", "subregion": "Central America" }, "geometry": { "type": "Point", "coordinates": [ -88.87, 13.73 ] } },
{ "type": "Feature", "properties": { "id": null, "name": "Jersey", "continent": "Europe", "subregion": "Northern Europe" }, "geometry": { "type": "Point", "coordinates": [ -2.12, 49.22 ] } },
{ "type": "Feature", "properties": { "id": null, "name": "Chad", "continent": "Africa", "subregion": "Middle Africa" }, "geometry": { "type": "Point", "coordinates": [ 18.64, 15.33 ] } },
{ "type": "Feature", "properties": { "id": null, "name": "Zambia", "continent": "Africa", "subregion": "Eastern Africa" }, "geometry": { "type": "Point", "coordinates": [ 27.76, -13.45 ] } },
{ "type": "Feature", "properties": { "id": null, "name": "Mauritius", "continent": "Seven seas (open ocean)", "subregion": "Eastern Africa" }, "geometry": { "type": "Point", "coordinates": [ 57.57, -20.27 ] } },
{ "type": "Feature", "properties": { "id": null, "name": "Dominican Rep.", "continent": "North America", "subregion": "Caribbean" }, "geometry": { "type": "Point", "coordinates": [ -70.50, 18.89 ] } },
{ "type": "Feature", "properties": { "id": null, "name": "Indonesia", "continent": "Asia", "subregion": "South-Eastern Asia" }, "geometry": { "type": "Point", "coordinates": [ 117.23, -2.21 ] } },
{ "type": "Feature", "properties": { "id": null, "name": "Namibia", "continent": "Africa", "subregion": "Southern Africa" }, "geometry": { "type": "Point", "coordinates": [ 17.20, -22.12 ] } },
{ "type": "Feature", "properties": { "id": null, "name": "Kiribati", "continent": "Oceania", "subregion": "Micronesia" }, "geometry": { "type": "Point", "coordinates": [ -53.32, 0.84 ] } },
{ "type": "Feature", "properties": { "id": null, "name": "Niger", "continent": "Africa", "subregion": "Western Africa" }, "geometry": { "type": "Point", "coordinates": [ 9.38, 17.41 ] } },
{ "type": "Feature", "properties": { "id": null, "name": "Somalia", "continent": "Africa", "subregion": "Eastern Africa" }, "geometry": { "type": "Point", "coordinates": [ 45.70, 4.74 ] } },
{ "type": "Feature", "properties": { "id": null, "name": "Antigua and Barb.", "continent": "North America", "subregion": "Caribbean" }, "geometry": { "type": "Point", "coordinates": [ -61.79, 17.27 ] } },
{ "type": "Feature", "properties": { "id": null, "name": "Seychelles", "continent": "Seven seas (open ocean)", "subregion": "Eastern Africa" }, "geometry": { "type": "Point", "coordinates": [ 55.47, -4.66 ] } },
{ "type": "Feature", "properties": { "id": null, "name": "Cyprus", "continent": "Asia", "subregion": "Western Asia" }, "geometry": { "type": "Point", "coordinates": [ 33.00, 34.91 ] } },
{ "type": "Feature", "properties": { "id": null, "name": "Israel", "continent": "Asia", "subregion": "Western Asia" }, "geometry": { "type": "Point", "coordinates": [ 35.00, 31.46 ] } },
{ "type": "Feature", "properties": { "id": null, "name": "Isle of Man", "continent": "Europe", "subregion": "Northern Europe" }, "geometry": { "type": "Point", "coordinates": [ -4.54, 54.22 ] } },
{ "type": "Feature", "properties": { "id": null, "name": "Philippines", "continent": "Asia", "subregion": "South-Eastern Asia" }, "geometry": { "type": "Point", "coordinates": [ 122.88, 11.77 ] } },
{ "type": "Feature", "properties": { "id": null, "name": "Austria", "continent": "Europe", "subregion": "Western Europe" }, "geometry": { "type": "Point", "coordinates": [ 14.12, 47.58 ] } },
{ "type": "Feature", "properties": { "id": null, "name": "Zimbabwe", "continent": "Africa", "subregion": "Eastern Africa" }, "geometry": { "type": "Point", "coordinates": [ 29.86, -19.01 ] } },
{ "type": "Feature", "properties": { "id": null, "name": "Timor-Leste", "continent": "Asia", "subregion": "South-Eastern Asia" }, "geometry": { "type": "Point", "coordinates": [ 125.84, -8.82 ] } },
{ "type": "Feature", "properties": { "id": null, "name": "Kuwait", "continent": "Asia", "subregion": "Western Asia" }, "geometry": { "type": "Point", "coordinates": [ 47.58, 29.33 ] } },
{ "type": "Feature", "properties": { "id": null, "name": "Pakistan", "continent": "Asia", "subregion": "Southern Asia" }, "geometry": { "type": "Point", "coordinates": [ 69.33, 29.94 ] } },
{ "type": "Feature", "properties": { "id": null, "name": "Curaao", "continent": "North America", "subregion": "Caribbean" }, "geometry": { "type": "Point", "coordinates": [ -68.97, 12.19 ] } },
{ "type": "Feature", "properties": { "id": null, "name": "Cameroon", "continent": "Africa", "subregion": "Middle Africa" }, "geometry": { "type": "Point", "coordinates": [ 12.74, 5.69 ] } },
{ "type": "Feature", "properties": { "id": null, "name": "Norfolk Island", "continent": "Oceania", "subregion": "Australia and New Zealand" }, "geometry": { "type": "Point", "coordinates": [ 167.94, -29.05 ] } },
{ "type": "Feature", "properties": { "id": null, "name": "Ashmore and Cartier Is.", "continent": "Oceania", "subregion": "Australia and New Zealand" }, "geometry": { "type": "Point", "coordinates": [ 123.58, -12.42 ] } },
{ "type": "Feature", "properties": { "id": null, "name": "Qatar", "continent": "Asia", "subregion": "Western Asia" }, "geometry": { "type": "Point", "coordinates": [ 51.18, 25.30 ] } },
{ "type": "Feature", "properties": { "id": null, "name": "Bangladesh", "continent": "Asia", "subregion": "Southern Asia" }, "geometry": { "type": "Point", "coordinates": [ 90.23, 23.86 ] } },
{ "type": "Feature", "properties": { "id": null, "name": "Bahamas", "continent": "North America", "subregion": "Caribbean" }, "geometry": { "type": "Point", "coordinates": [ -76.62, 24.28 ] } },
{ "type": "Feature", "properties": { "id": null, "name": "Eq. Guinea", "continent": "Africa", "subregion": "Middle Africa" }, "geometry": { "type": "Point", "coordinates": [ 10.33, 1.70 ] } },
{ "type": "Feature", "properties": { "id": null, "name": "Lebanon", "continent": "Asia", "subregion": "Western Asia" }, "geometry": { "type": "Point", "coordinates": [ 35.88, 33.92 ] } },
{ "type": "Feature", "properties": { "id": null, "name": "Taiwan", "continent": "Asia", "subregion": "Eastern Asia" }, "geometry": { "type": "Point", "coordinates": [ 120.95, 23.75 ] } },
{ "type": "Feature", "properties": { "id": null, "name": "American Samoa", "continent": "Oceania", "subregion": "Polynesia" }, "geometry": { "type": "Point", "coordinates": [ -170.72, -14.30 ] } },
{ "type": "Feature", "properties": { "id": null, "name": "St. Vin. and Gren.", "continent": "North America", "subregion": "Caribbean" }, "geometry": { "type": "Point", "coordinates": [ -61.19, 13.22 ] } },
{ "type": "Feature", "properties": { "id": null, "name": "Kenya", "continent": "Africa", "subregion": "Eastern Africa" }, "geometry": { "type": "Point", "coordinates": [ 37.82, 0.60 ] } },
{ "type": "Feature", "properties": { "id": null, "name": "Aruba", "continent": "North America", "subregion": "Caribbean" }, "geometry": { "type": "Point", "coordinates": [ -69.98, 12.52 ] } },
{ "type": "Feature", "properties": { "id": null, "name": "Cayman Is.", "continent": "North America", "subregion": "Caribbean" }, "geometry": { "type": "Point", "coordinates": [ -80.90, 19.43 ] } },
{ "type": "Feature", "properties": { "id": null, "name": "Haiti", "continent": "North America", "subregion": "Caribbean" }, "geometry": { "type": "Point", "coordinates": [ -72.68, 18.93 ] } },
{ "type": "Feature", "properties": { "id": null, "name": "Peru", "continent": "South America", "subregion": "South America" }, "geometry": { "type": "Point", "coordinates": [ -74.40, -9.12 ] } },
{ "type": "Feature", "properties": { "id": null, "name": "Brunei", "continent": "Asia", "subregion": "South-Eastern Asia" }, "geometry": { "type": "Point", "coordinates": [ 114.72, 4.51 ] } },
{ "type": "Feature", "properties": { "id": null, "name": "Kazakhstan", "continent": "Asia", "subregion": "Central Asia" }, "geometry": { "type": "Point", "coordinates": [ 67.31, 48.16 ] } },
{ "type": "Feature", "properties": { "id": null, "name": "Monaco", "continent": "Europe", "subregion": "Western Europe" }, "geometry": { "type": "Point", "coordinates": [ 7.40, 43.75 ] } },
{ "type": "Feature", "properties": { "id": null, "name": "Andorra", "continent": "Europe", "subregion": "Southern Europe" }, "geometry": { "type": "Point", "coordinates": [ 1.55, 42.54 ] } },
{ "type": "Feature", "properties": { "id": null, "name": "Dem. Rep. Korea", "continent": "Asia", "subregion": "Eastern Asia" }, "geometry": { "type": "Point", "coordinates": [ 127.19, 40.15 ] } },
{ "type": "Feature", "properties": { "id": null, "name": "Spain", "continent": "Europe", "subregion": "Southern Europe" }, "geometry": { "type": "Point", "coordinates": [ -3.64, 40.24 ] } },
{ "type": "Feature", "properties": { "id": null, "name": "Thailand", "continent": "Asia", "subregion": "South-Eastern Asia" }, "geometry": { "type": "Point", "coordinates": [ 101.00, 15.11 ] } },
{ "type": "Feature", "properties": { "id": null, "name": "Fr. Polynesia", "continent": "Oceania", "subregion": "Polynesia" }, "geometry": { "type": "Point", "coordinates": [ -144.94, -14.78 ] } },
{ "type": "Feature", "properties": { "id": null, "name": "Bosnia and Herz.", "continent": "Europe", "subregion": "Southern Europe" }, "geometry": { "type": "Point", "coordinates": [ 17.76, 44.17 ] } },
{ "type": "Feature", "properties": { "id": null, "name": "Lesotho", "continent": "Africa", "subregion": "Southern Africa" }, "geometry": { "type": "Point", "coordinates": [ 28.22, -29.58 ] } },
{ "type": "Feature", "properties": { "id": null, "name": "Lithuania", "continent": "Europe", "subregion": "Northern Europe" }, "geometry": { "type": "Point", "coordinates": [ 23.88, 55.32 ] } },
{ "type": "Feature", "properties": { "id": null, "name": "Cuba", "continent": "North America", "subregion": "Caribbean" }, "geometry": { "type": "Point", "coordinates": [ -79.01, 21.62 ] } },
{ "type": "Feature", "properties": { "id": null, "name": "Iraq", "continent": "Asia", "subregion": "Western Asia" }, "geometry": { "type": "Point", "coordinates": [ 43.74, 33.03 ] } },
{ "type": "Feature", "properties": { "id": null, "name": "Cape Verde", "continent": "Africa", "subregion": "Western Africa" }, "geometry": { "type": "Point", "coordinates": [ -23.94, 15.94 ] } },
{ "type": "Feature", "properties": { "id": null, "name": "Greenland", "continent": "North America", "subregion": "Northern America" }, "geometry": { "type": "Point", "coordinates": [ -41.34, 74.71 ] } },
{ "type": "Feature", "properties": { "id": null, "name": "Germany", "continent": "Europe", "subregion": "Western Europe" }, "geometry": { "type": "Point", "coordinates": [ 10.38, 51.10 ] } },
{ "type": "Feature", "properties": { "id": null, "name": "Brazil", "continent": "South America", "subregion": "South America" }, "geometry": { "type": "Point", "coordinates": [ -53.09, -10.77 ] } },
{ "type": "Feature", "properties": { "id": null, "name": "Anguilla", "continent": "North America", "subregion": "Caribbean" }, "geometry": { "type": "Point", "coordinates": [ -63.06, 18.22 ] } },
{ "type": "Feature", "properties": { "id": null, "name": "Greece", "continent": "Europe", "subregion": "Southern Europe" }, "geometry": { "type": "Point", "coordinates": [ 22.95, 39.07 ] } },
{ "type": "Feature", "properties": { "id": null, "name": "Madagascar", "continent": "Africa", "subregion": "Eastern Africa" }, "geometry": { "type": "Point", "coordinates": [ 46.70, -19.37 ] } },
{ "type": "Feature", "properties": { "id": null, "name": "Burkina Faso", "continent": "Africa", "subregion": "Western Africa" }, "geometry": { "type": "Point", "coordinates": [ -1.75, 12.26 ] } },
{ "type": "Feature", "properties": { "id": null, "name": "Georgia", "continent": "Asia", "subregion": "Western Asia" }, "geometry": { "type": "Point", "coordinates": [ 43.50, 42.16 ] } },
{ "type": "Feature", "properties": { "id": null, "name": "United Arab Emirates", "continent": "Asia", "subregion": "Western Asia" }, "geometry": { "type": "Point", "coordinates": [ 54.29, 23.90 ] } },
{ "type": "Feature", "properties": { "id": null, "name": "Benin", "continent": "Africa", "subregion": "Western Africa" }, "geometry": { "type": "Point", "coordinates": [ 2.32, 9.64 ] } },
{ "type": "Feature", "properties": { "id": null, "name": "S. Sudan", "continent": "Africa", "subregion": "Eastern Africa" }, "geometry": { "type": "Point", "coordinates": [ 30.24, 7.30 ] } },
{ "type": "Feature", "properties": { "id": null, "name": "Liechtenstein", "continent": "Europe", "subregion": "Western Europe" }, "geometry": { "type": "Point", "coordinates": [ 9.53, 47.13 ] } },
{ "type": "Feature", "properties": { "id": null, "name": "Sri Lanka", "continent": "Asia", "subregion": "Southern Asia" }, "geometry": { "type": "Point", "coordinates": [ 80.70, 7.61 ] } },
{ "type": "Feature", "properties": { "id": null, "name": "Sint Maarten", "continent": "North America", "subregion": "Caribbean" }, "geometry": { "type": "Point", "coordinates": [ -63.05, 18.05 ] } },
{ "type": "Feature", "properties": { "id": null, "name": "W. Sahara", "continent": "Africa", "subregion": "Northern Africa" }, "geometry": { "type": "Point", "coordinates": [ -12.22, 24.22 ] } },
{ "type": "Feature", "properties": { "id": null, "name": "Croatia", "continent": "Europe", "subregion": "Southern Europe" }, "geometry": { "type": "Point", "coordinates": [ 16.40, 45.08 ] } },
{ "type": "Feature", "properties": { "id": null, "name": "Sweden", "continent": "Europe", "subregion": "Northern Europe" }, "geometry": { "type": "Point", "coordinates": [ 16.74, 62.77 ] } },
{ "type": "Feature", "properties": { "id": null, "name": "Cte d'Ivoire", "continent": "Africa", "subregion": "Western Africa" }, "geometry": { "type": "Point", "coordinates": [ -5.56, 7.62 ] } },
{ "type": "Feature", "properties": { "id": null, "name": "Belize", "continent": "North America", "subregion": "Central America" }, "geometry": { "type": "Point", "coordinates": [ -88.70, 17.19 ] } },
{ "type": "Feature", "properties": { "id": null, "name": "Jamaica", "continent": "North America", "subregion": "Caribbean" }, "geometry": { "type": "Point", "coordinates": [ -77.31, 18.15 ] } },
{ "type": "Feature", "properties": { "id": null, "name": "Vanuatu", "continent": "Oceania", "subregion": "Melanesia" }, "geometry": { "type": "Point", "coordinates": [ 167.69, -16.22 ] } },
{ "type": "Feature", "properties": { "id": null, "name": "N. Mariana Is.", "continent": "Oceania", "subregion": "Micronesia" }, "geometry": { "type": "Point", "coordinates": [ 145.62, 15.83 ] } },
{ "type": "Feature", "properties": { "id": null, "name": "Solomon Is.", "continent": "Oceania", "subregion": "Melanesia" }, "geometry": { "type": "Point", "coordinates": [ 159.62, -8.91 ] } },
{ "type": "Feature", "properties": { "id": null, "name": "Barbados", "continent": "North America", "subregion": "Caribbean" }, "geometry": { "type": "Point", "coordinates": [ -59.56, 13.18 ] } },
{ "type": "Feature", "properties": { "id": null, "name": "Guinea", "continent": "Africa", "subregion": "Western Africa" }, "geometry": { "type": "Point", "coordinates": [ -10.94, 10.43 ] } },
{ "type": "Feature", "properties": { "id": null, "name": "Somaliland", "continent": "Africa", "subregion": "Eastern Africa" }, "geometry": { "type": "Point", "coordinates": [ 46.25, 9.73 ] } },
{ "type": "Feature", "properties": { "id": null, "name": "United Kingdom", "continent": "Europe", "subregion": "Northern Europe" }, "geometry": { "type": "Point", "coordinates": [ -1.59, 52.92 ] } },
{ "type": "Feature", "properties": { "id": null, "name": "Nepal", "continent": "Asia", "subregion": "Southern Asia" }, "geometry": { "type": "Point", "coordinates": [ 83.91, 28.24 ] } },
{ "type": "Feature", "properties": { "id": null, "name": "Togo", "continent": "Africa", "subregion": "Western Africa" }, "geometry": { "type": "Point", "coordinates": [ 0.96, 8.52 ] } },
{ "type": "Feature", "properties": { "id": null, "name": "Mexico", "continent": "North America", "subregion": "Central America" }, "geometry": { "type": "Point", "coordinates": [ -102.52, 23.94 ] } },
{ "type": "Feature", "properties": { "id": null, "name": "Palau", "continent": "Oceania", "subregion": "Micronesia" }, "geometry": { "type": "Point", "coordinates": [ 134.40, 7.27 ] } },
{ "type": "Feature", "properties": { "id": null, "name": "Macedonia", "continent": "Europe", "subregion": "Southern Europe" }, "geometry": { "type": "Point", "coordinates": [ 21.68, 41.59 ] } },
{ "type": "Feature", "properties": { "id": null, "name": "Mozambique", "continent": "Africa", "subregion": "Eastern Africa" }, "geometry": { "type": "Point", "coordinates": [ 35.54, -17.31 ] } },
{ "type": "Feature", "properties": { "id": null, "name": "France", "continent": "Europe", "subregion": "Western Europe" }, "geometry": { "type": "Point", "coordinates": [ 2.49, 46.90 ] } },
{ "type": "Feature", "properties": { "id": null, "name": "Nigeria", "continent": "Africa", "subregion": "Western Africa" }, "geometry": { "type": "Point", "coordinates": [ 8.08, 9.59 ] } },
{ "type": "Feature", "properties": { "id": null, "name": "Colombia", "continent": "South America", "subregion": "South America" }, "geometry": { "type": "Point", "coordinates": [ -73.08, 3.91 ] } },
{ "type": "Feature", "properties": { "id": null, "name": "Venezuela", "continent": "South America", "subregion": "South America" }, "geometry": { "type": "Point", "coordinates": [ -66.18, 7.12 ] } },
{ "type": "Feature", "properties": { "id": null, "name": "Tonga", "continent": "Oceania", "subregion": "Polynesia" }, "geometry": { "type": "Point", "coordinates": [ -174.80, -20.42 ] } },
{ "type": "Feature", "properties": { "id": null, "name": "Egypt", "continent": "Africa", "subregion": "Northern Africa" }, "geometry": { "type": "Point", "coordinates": [ 29.86, 26.49 ] } },
{ "type": "Feature", "properties": { "id": null, "name": "Guam", "continent": "Oceania", "subregion": "Micronesia" }, "geometry": { "type": "Point", "coordinates": [ 144.76, 13.44 ] } },
{ "type": "Feature", "properties": { "id": null, "name": "Turkmenistan", "continent": "Asia", "subregion": "Central Asia" }, "geometry": { "type": "Point", "coordinates": [ 59.38, 39.09 ] } },
{ "type": "Feature", "properties": { "id": null, "name": "United States", "continent": "North America", "subregion": "Northern America" }, "geometry": { "type": "Point", "coordinates": [ -100.15, 39.65 ] } },
{ "type": "Feature", "properties": { "id": null, "name": "Romania", "continent": "Europe", "subregion": "Eastern Europe" }, "geometry": { "type": "Point", "coordinates": [ 24.97, 45.85 ] } },
{ "type": "Feature", "properties": { "id": null, "name": "Dem. Rep. Congo", "continent": "Africa", "subregion": "Middle Africa" }, "geometry": { "type": "Point", "coordinates": [ 23.59, -2.86 ] } },
{ "type": "Feature", "properties": { "id": null, "name": "Vietnam", "continent": "Asia", "subregion": "South-Eastern Asia" }, "geometry": { "type": "Point", "coordinates": [ 106.29, 16.64 ] } },
{ "type": "Feature", "properties": { "id": null, "name": "S. Geo. and S. Sandw. Is.", "continent": "Seven seas (open ocean)", "subregion": "Seven seas (open ocean)" }, "geometry": { "type": "Point", "coordinates": [ -36.42, -54.46 ] } },
{ "type": "Feature", "properties": { "id": null, "name": "Swaziland", "continent": "Africa", "subregion": "Southern Africa" }, "geometry": { "type": "Point", "coordinates": [ 31.48, -26.56 ] } },
{ "type": "Feature", "properties": { "id": null, "name": "St-Barthlemy", "continent": "North America", "subregion": "Caribbean" }, "geometry": { "type": "Point", "coordinates": [ -62.84, 17.90 ] } },
{ "type": "Feature", "properties": { "id": null, "name": "Guyana", "continent": "South America", "subregion": "South America" }, "geometry": { "type": "Point", "coordinates": [ -58.98, 4.79 ] } },
{ "type": "Feature", "properties": { "id": null, "name": "Belarus", "continent": "Europe", "subregion": "Eastern Europe" }, "geometry": { "type": "Point", "coordinates": [ 28.03, 53.53 ] } },
{ "type": "Feature", "properties": { "id": null, "name": "Indian Ocean Ter.", "continent": "Asia", "subregion": "Seven seas (open ocean)" }, "geometry": { "type": "Point", "coordinates": [ 104.79, -10.65 ] } },
{ "type": "Feature", "properties": { "id": null, "name": "Oman", "continent": "Asia", "subregion": "Western Asia" }, "geometry": { "type": "Point", "coordinates": [ 56.09, 20.60 ] } },
{ "type": "Feature", "properties": { "id": null, "name": "Dominica", "continent": "North America", "subregion": "Caribbean" }, "geometry": { "type": "Point", "coordinates": [ -61.35, 15.43 ] } },
{ "type": "Feature", "properties": { "id": null, "name": "Panama", "continent": "North America", "subregion": "Central America" }, "geometry": { "type": "Point", "coordinates": [ -80.11, 8.51 ] } },
{ "type": "Feature", "properties": { "id": null, "name": "Siachen Glacier", "continent": "Asia", "subregion": "Southern Asia" }, "geometry": { "type": "Point", "coordinates": [ 77.18, 35.39 ] } },
{ "type": "Feature", "properties": { "id": null, "name": "Finland", "continent": "Europe", "subregion": "Northern Europe" }, "geometry": { "type": "Point", "coordinates": [ 26.27, 64.49 ] } },
{ "type": "Feature", "properties": { "id": null, "name": "Estonia", "continent": "Europe", "subregion": "Northern Europe" }, "geometry": { "type": "Point", "coordinates": [ 25.47, 58.67 ] } },
{ "type": "Feature", "properties": { "id": null, "name": "Tajikistan", "continent": "Asia", "subregion": "Central Asia" }, "geometry": { "type": "Point", "coordinates": [ 71.01, 38.52 ] } },
{ "type": "Feature", "properties": { "id": null, "name": "Cambodia", "continent": "Asia", "subregion": "South-Eastern Asia" }, "geometry": { "type": "Point", "coordinates": [ 104.90, 12.72 ] } },
{ "type": "Feature", "properties": { "id": null, "name": "New Zealand", "continent": "Oceania", "subregion": "Australia and New Zealand" }, "geometry": { "type": "Point", "coordinates": [ 171.48, -41.81 ] } },
{ "type": "Feature", "properties": { "id": null, "name": "Turkey", "continent": "Asia", "subregion": "Western Asia" }, "geometry": { "type": "Point", "coordinates": [ 35.16, 39.06 ] } },
{ "type": "Feature", "properties": { "id": null, "name": "Liberia", "continent": "Africa", "subregion": "Western Africa" }, "geometry": { "type": "Point", "coordinates": [ -9.32, 6.45 ] } },
{ "type": "Feature", "properties": { "id": null, "name": "Italy", "continent": "Europe", "subregion": "Southern Europe" }, "geometry": { "type": "Point", "coordinates": [ 12.06, 42.79 ] } },
{ "type": "Feature", "properties": { "id": null, "name": "Aland", "continent": "Europe", "subregion": "Northern Europe" }, "geometry": { "type": "Point", "coordinates": [ 19.95, 60.21 ] } },
{ "type": "Feature", "properties": { "id": null, "name": "So Tom and Principe", "continent": "Africa", "subregion": "Middle Africa" }, "geometry": { "type": "Point", "coordinates": [ 6.72, 0.44 ] } },
{ "type": "Feature", "properties": { "id": null, "name": "Saint Helena", "continent": "Seven seas (open ocean)", "subregion": "Western Africa" }, "geometry": { "type": "Point", "coordinates": [ -9.51, -12.43 ] } },
{ "type": "Feature", "properties": { "id": null, "name": "N. Cyprus", "continent": "Asia", "subregion": "Western Asia" }, "geometry": { "type": "Point", "coordinates": [ 33.57, 35.26 ] } },
{ "type": "Feature", "properties": { "id": null, "name": "St-Martin", "continent": "North America", "subregion": "Caribbean" }, "geometry": { "type": "Point", "coordinates": [ -63.05, 18.08 ] } },
{ "type": "Feature", "properties": { "id": null, "name": "Burundi", "continent": "Africa", "subregion": "Eastern Africa" }, "geometry": { "type": "Point", "coordinates": [ 29.91, -3.30 ] } },
{ "type": "Feature", "properties": { "id": null, "name": "Papua New Guinea", "continent": "Oceania", "subregion": "Melanesia" }, "geometry": { "type": "Point", "coordinates": [ 145.20, -6.46 ] } },
{ "type": "Feature", "properties": { "id": null, "name": "Myanmar", "continent": "Asia", "subregion": "South-Eastern Asia" }, "geometry": { "type": "Point", "coordinates": [ 96.48, 21.18 ] } }
]
}
